[{"Id":4,"Source":"ADOT&PF","SourceId":"2","RoadwayName":"Seward Highway","Direction":"North","Latitude":61.1092,"Longitude":-149.8509,"Location":"Seward Highway @ Huffman Road MP 120","SortOrder":0,"Views_Id":17,"Url":"https://511.alaska.gov/map/Cctv/17","Status":"Enabled","Views_Description":"N/A","category":"Seward Highway"},{"Id":4,"Source":"ADOT&PF","SourceId":"2","RoadwayName":"Seward Highway","Direction":"North","Latitude":61.1092,"Longitude":-149.8509,"Location":"Seward Highway @ Huffman Road MP 120","SortOrder":0,"Views_Id":18,"Url":"https://511.alaska.gov/map/Cctv/18","Status":"Enabled","Views_Description":"N/A","category":"Seward Highway"},{"Id":4,"Source":"ADOT&PF","SourceId":"2","RoadwayName":"Seward Highway","Direction":"North","Latitude":61.1092,"Longitude":-149.8509,"Location":"Seward Highway @ Huffman Road MP 120","SortOrder":0,"Views_Id":19,"Url":"https://511.alaska.gov/map/Cctv/19","Status":"Enabled","Views_Description":"N/A","category":"Seward Highway"},{"Id":4,"Source":"ADOT&PF","SourceId":"2","RoadwayName":"Seward Highway","Direction":"North","Latitude":61.1092,"Longitude":-149.8509,"Location":"Seward Highway @ Huffman Road MP 120","SortOrder":0,"Views_Id":20,"Url":"https://511.alaska.gov/map/Cctv/20","Status":"Enabled","Views_Description":"N/A","category":"Seward Highway"},{"Id":4,"Source":"ADOT&PF","SourceId":"2","RoadwayName":"Seward Highway","Direction":"North","Latitude":61.1092,"Longitude":-149.8509,"Location":"Seward Highway @ Huffman Road MP 120","SortOrder":0,"Views_Id":21,"Url":"https://511.alaska.gov/map/Cctv/21","Status":"Enabled","Views_Description":"N/A","category":"Seward Highway"},{"Id":4,"Source":"ADOT&PF","SourceId":"2","RoadwayName":"Seward Highway","Direction":"North","Latitude":61.1092,"Longitude":-149.8509,"Location":"Seward Highway @ Huffman Road MP 120","SortOrder":0,"Views_Id":22,"Url":"https://511.alaska.gov/map/Cctv/22","Status":"Enabled","Views_Description":"Test data","category":"Seward Highway"},{"Id":4,"Source":"ADOT&PF","SourceId":"2","RoadwayName":"Seward Highway","Direction":"North","Latitude":61.1092,"Longitude":-149.8509,"Location":"Seward Highway @ Huffman Road MP 120","SortOrder":0,"Views_Id":23,"Url":"https://511.alaska.gov/map/Cctv/23","Status":"Enabled","Views_Description":"N/A","category":"Seward Highway"},{"Id":4,"Source":"ADOT&PF","SourceId":"2","RoadwayName":"Seward Highway","Direction":"North","Latitude":61.1092,"Longitude":-149.8509,"Location":"Seward Highway @ Huffman Road MP 120","SortOrder":0,"Views_Id":24,"Url":"https://511.alaska.gov/map/Cctv/24","Status":"Enabled","Views_Description":"N/A","category":"Seward Highway"},{"Id":5,"Source":"ADOT&PF","SourceId":"3","RoadwayName":"Glenn Highway","Direction":"North","Latitude":61.3117,"Longitude":-149.576,"Location":"Glenn Highway @ Eagle River Bridge MP 12.8","SortOrder":0,"Views_Id":25,"Url":"https://511.alaska.gov/map/Cctv/25","Status":"Enabled","Views_Description":"N/A","category":"Glenn Highway"},{"Id":5,"Source":"ADOT&PF","SourceId":"3","RoadwayName":"Glenn Highway","Direction":"North","Latitude":61.3117,"Longitude":-149.576,"Location":"Glenn Highway @ Eagle River Bridge MP 12.8","SortOrder":0,"Views_Id":26,"Url":"https://511.alaska.gov/map/Cctv/26","Status":"Enabled","Views_Description":"N/A","category":"Glenn Highway"},{"Id":5,"Source":"ADOT&PF","SourceId":"3","RoadwayName":"Glenn Highway","Direction":"North","Latitude":61.3117,"Longitude":-149.576,"Location":"Glenn Highway @ Eagle River Bridge MP 12.8","SortOrder":0,"Views_Id":27,"Url":"https://511.alaska.gov/map/Cctv/27","Status":"Enabled","Views_Description":"N/A","category":"Glenn Highway"},{"Id":5,"Source":"ADOT&PF","SourceId":"3","RoadwayName":"Glenn Highway","Direction":"North","Latitude":61.3117,"Longitude":-149.576,"Location":"Glenn Highway @ Eagle River Bridge MP 12.8","SortOrder":0,"Views_Id":28,"Url":"https://511.alaska.gov/map/Cctv/28","Status":"Enabled","Views_Description":"N/A","category":"Glenn Highway"},{"Id":5,"Source":"ADOT&PF","SourceId":"3","RoadwayName":"Glenn Highway","Direction":"North","Latitude":61.3117,"Longitude":-149.576,"Location":"Glenn Highway @ Eagle River Bridge MP 12.8","SortOrder":0,"Views_Id":29,"Url":"https://511.alaska.gov/map/Cctv/29","Status":"Enabled","Views_Description":"N/A","category":"Glenn Highway"},{"Id":5,"Source":"ADOT&PF","SourceId":"3","RoadwayName":"Glenn Highway","Direction":"North","Latitude":61.3117,"Longitude":-149.576,"Location":"Glenn Highway @ Eagle River Bridge MP 12.8","SortOrder":0,"Views_Id":30,"Url":"https://511.alaska.gov/map/Cctv/30","Status":"Enabled","Views_Description":"N/A","category":"Glenn Highway"},{"Id":5,"Source":"ADOT&PF","SourceId":"3","RoadwayName":"Glenn Highway","Direction":"North","Latitude":61.3117,"Longitude":-149.576,"Location":"Glenn Highway @ Eagle River Bridge MP 12.8","SortOrder":0,"Views_Id":31,"Url":"https://511.alaska.gov/map/Cctv/31","Status":"Enabled","Views_Description":"N/A","category":"Glenn Highway"},{"Id":5,"Source":"ADOT&PF","SourceId":"3","RoadwayName":"Glenn Highway","Direction":"North","Latitude":61.3117,"Longitude":-149.576,"Location":"Glenn Highway @ Eagle River Bridge MP 12.8","SortOrder":0,"Views_Id":32,"Url":"https://511.alaska.gov/map/Cctv/32","Status":"Enabled","Views_Description":"N/A","category":"Glenn Highway"},{"Id":6,"Source":"ADOT&PF","SourceId":"4","RoadwayName":"Hillside Road","Direction":"North","Latitude":61.1078,"Longitude":-149.7448,"Location":"Hillside Road @ Upper Huffman Road","SortOrder":0,"Views_Id":33,"Url":"https://511.alaska.gov/map/Cctv/33","Status":"Enabled","Views_Description":"N/A","category":"South Anchorage"},{"Id":8,"Source":"ADOT&PF","SourceId":"6","RoadwayName":"Glenn Highway","Direction":"North","Latitude":61.2759,"Longitude":-149.6324,"Location":"Glenn Highway @ S Curves  MP 10","SortOrder":0,"Views_Id":35,"Url":"https://511.alaska.gov/map/Cctv/35","Status":"Enabled","Views_Description":"N/A","category":"Glenn Highway"},{"Id":15,"Source":"ADOT&PF","SourceId":"1123qouzxll","RoadwayName":"New Seward Hwy","Direction":"All","Latitude":61.1934,"Longitude":-149.8681,"Location":"Benson & New Seward Hwy","SortOrder":0,"Views_Id":70,"Url":"https://511.alaska.gov/map/Cctv/70","Status":"Enabled","Views_Description":"Benson & New Seward Hwy","category":"Seward Highway"},{"Id":17,"Source":"ADOT&PF","SourceId":"1234","RoadwayName":"Muldoon Road","Direction":"North","Latitude":61.2261,"Longitude":-149.7335,"Location":"Glenn Hwy & Muldoon Road South Ramp","SortOrder":0,"Views_Id":79,"Url":"https://511.alaska.gov/map/Cctv/79","Status":"Enabled","Views_Description":"Glenn Hwy & Muldoon Road South Ramp","category":"East Anchorage"},{"Id":17,"Source":"ADOT&PF","SourceId":"1234","RoadwayName":"Muldoon Road","Direction":"North","Latitude":61.2261,"Longitude":-149.7335,"Location":"Glenn Hwy & Muldoon Road South Ramp","SortOrder":0,"Views_Id":80,"Url":"https://511.alaska.gov/map/Cctv/80","Status":"Enabled","Views_Description":"Glenn Hwy & Muldoon Road South Ramp","category":"East Anchorage"},{"Id":25,"Source":"ADOT&PF","SourceId":"1un1flvedqe","RoadwayName":"Dimond Blvd","Direction":"Both","Latitude":61.1447,"Longitude":-149.8868,"Location":"C St & Dimond","SortOrder":0,"Views_Id":110,"Url":"https://511.alaska.gov/map/Cctv/110","Status":"Enabled","Views_Description":"N/A","category":"South Anchorage"},{"Id":63,"Source":"ADOT&PF","SourceId":"57","RoadwayName":"Seward Highway","Direction":"Unknown","Latitude":61.0764,"Longitude":-149.8295,"Location":"Seward Highway @ Potter Marsh MP 117.3","SortOrder":0,"Views_Id":309,"Url":"https://511.alaska.gov/map/Cctv/309","Status":"Enabled","Views_Description":"","category":"Seward Highway"},{"Id":63,"Source":"ADOT&PF","SourceId":"57","RoadwayName":"Seward Highway","Direction":"Unknown","Latitude":61.0764,"Longitude":-149.8295,"Location":"Seward Highway @ Potter Marsh MP 117.3","SortOrder":0,"Views_Id":310,"Url":"https://511.alaska.gov/map/Cctv/310","Status":"Enabled","Views_Description":"","category":"Seward Highway"},{"Id":63,"Source":"ADOT&PF","SourceId":"57","RoadwayName":"Seward Highway","Direction":"Unknown","Latitude":61.0764,"Longitude":-149.8295,"Location":"Seward Highway @ Potter Marsh MP 117.3","SortOrder":0,"Views_Id":311,"Url":"https://511.alaska.gov/map/Cctv/311","Status":"Enabled","Views_Description":"","category":"Seward Highway"},{"Id":64,"Source":"ADOT&PF","SourceId":"58","RoadwayName":"Glenn Highway","Direction":"Unknown","Latitude":61.2193,"Longitude":-149.8151,"Location":"Glenn Highway @ Bragaw","SortOrder":0,"Views_Id":312,"Url":"https://511.alaska.gov/map/Cctv/312","Status":"Enabled","Views_Description":"","category":"Glenn Highway"},{"Id":64,"Source":"ADOT&PF","SourceId":"58","RoadwayName":"Glenn Highway","Direction":"Unknown","Latitude":61.2193,"Longitude":-149.8151,"Location":"Glenn Highway @ Bragaw","SortOrder":0,"Views_Id":313,"Url":"https://511.alaska.gov/map/Cctv/313","Status":"Enabled","Views_Description":"","category":"Glenn Highway"},{"Id":64,"Source":"ADOT&PF","SourceId":"58","RoadwayName":"Glenn Highway","Direction":"Unknown","Latitude":61.2193,"Longitude":-149.8151,"Location":"Glenn Highway @ Bragaw","SortOrder":0,"Views_Id":314,"Url":"https://511.alaska.gov/map/Cctv/314","Status":"Enabled","Views_Description":"","category":"Glenn Highway"},{"Id":67,"Source":"ADOT&PF","SourceId":"5siyzlsan2b","RoadwayName":"Boniface Pkwy","Direction":"Both","Latitude":61.2262,"Longitude":-149.7785,"Location":"Boniface Pkwy & Mt View Dr","SortOrder":0,"Views_Id":324,"Url":"https://511.alaska.gov/map/Cctv/324","Status":"Enabled","Views_Description":"Boniface Pkwy & Mt View Dr","category":"East Anchorage"},{"Id":83,"Source":"ADOT&PF","SourceId":"901","RoadwayName":"Seward Highway","Direction":"Outbound","Latitude":60.9495,"Longitude":-149.3932,"Location":"Seward Highway @ MP 98.5","SortOrder":0,"Views_Id":406,"Url":"https://511.alaska.gov/map/Cctv/406","Status":"Enabled","Views_Description":"","category":"Seward Highway"},{"Id":83,"Source":"ADOT&PF","SourceId":"901","RoadwayName":"Seward Highway","Direction":"Outbound","Latitude":60.9495,"Longitude":-149.3932,"Location":"Seward Highway @ MP 98.5","SortOrder":0,"Views_Id":407,"Url":"https://511.alaska.gov/map/Cctv/407","Status":"Enabled","Views_Description":"N/A","category":"Seward Highway"},{"Id":91,"Source":"ADOT&PF","SourceId":"amlmxo2a0ao","RoadwayName":"Muldoon Road","Direction":"All","Latitude":61.2097,"Longitude":-149.7335,"Location":"Debarr & Muldoon","SortOrder":0,"Views_Id":424,"Url":"https://511.alaska.gov/map/Cctv/424","Status":"Enabled","Views_Description":"Debarr & Muldoon","category":"East Anchorage"},{"Id":92,"Source":"ADOT&PF","SourceId":"av20c2gkjkk","RoadwayName":"Old Seward Hwy","Direction":"Both","Latitude":61.1231,"Longitude":-149.8637,"Location":"O'Malley & Old Seward Hwy","SortOrder":0,"Views_Id":425,"Url":"https://511.alaska.gov/map/Cctv/425","Status":"Enabled","Views_Description":"N/A","category":"South Anchorage"},{"Id":96,"Source":"ADOT&PF","SourceId":"dmt1pfaa4t2","RoadwayName":"New Seward Hwy","Direction":"All","Latitude":61.1953,"Longitude":-149.8681,"Location":"New Seward Hwy & Northern Lights","SortOrder":0,"Views_Id":429,"Url":"https://511.alaska.gov/map/Cctv/429","Status":"Enabled","Views_Description":"New Seward Hwy & Northern Lights","category":"Seward Highway"},{"Id":99,"Source":"ADOT&PF","SourceId":"h1vt0ngducz","RoadwayName":"Boniface Pkwy","Direction":"All","Latitude":61.2097,"Longitude":-149.7784,"Location":"Boniface & Debarr","SortOrder":0,"Views_Id":432,"Url":"https://511.alaska.gov/map/Cctv/432","Status":"Enabled","Views_Description":"Boniface & Debarr","category":"East Anchorage"},{"Id":103,"Source":"ADOT&PF","SourceId":"hmg2bv4nb5f","RoadwayName":"Tudor Road","Direction":"Both","Latitude":61.1809,"Longitude":-149.8381,"Location":"Lake Otis & Tudor","SortOrder":0,"Views_Id":436,"Url":"https://511.alaska.gov/map/Cctv/436","Status":"Enabled","Views_Description":"Lake Otis & Tudor","category":"Midtown"},{"Id":104,"Source":"ADOT&PF","SourceId":"ia1m5zjsqkj","RoadwayName":"International Airport Rd","Direction":"Both","Latitude":61.1738,"Longitude":-149.9435,"Location":"International Airport & Jewel Lake/Spenard","SortOrder":0,"Views_Id":437,"Url":"https://511.alaska.gov/map/Cctv/437","Status":"Enabled","Views_Description":"","category":"West Anchorage"},{"Id":106,"Source":"ADOT&PF","SourceId":"iofkzmyp3gs","RoadwayName":"Boniface Pkwy","Direction":"All","Latitude":61.1953,"Longitude":-149.7784,"Location":"Boniface & Northern Lights","SortOrder":0,"Views_Id":439,"Url":"https://511.alaska.gov/map/Cctv/439","Status":"Enabled","Views_Description":"Boniface & Northern Lights","category":"East Anchorage"},{"Id":109,"Source":"ADOT&PF","SourceId":"jonr5g5oiby","RoadwayName":"Tudor Road","Direction":"All","Latitude":61.1808,"Longitude":-149.8682,"Location":"Old Seward & Tudor","SortOrder":0,"Views_Id":442,"Url":"https://511.alaska.gov/map/Cctv/442","Status":"Enabled","Views_Description":"Old Seward & Tudor","category":"Midtown"},{"Id":112,"Source":"ADOT&PF","SourceId":"koewjlofysb","RoadwayName":"Tudor Road","Direction":"All","Latitude":61.1808,"Longitude":-149.8083,"Location":"Elmore & Tudor","SortOrder":0,"Views_Id":445,"Url":"https://511.alaska.gov/map/Cctv/445","Status":"Enabled","Views_Description":"Elmore & Tudor","category":"Midtown"},{"Id":114,"Source":"ADOT&PF","SourceId":"kyngjvwlijy","RoadwayName":"Muldoon Road","Direction":"Both","Latitude":61.1953,"Longitude":-149.7335,"Location":"Muldoon & Northern Lights Blvd","SortOrder":0,"Views_Id":447,"Url":"https://511.alaska.gov/map/Cctv/447","Status":"Enabled","Views_Description":"N/A","category":"East Anchorage"},{"Id":115,"Source":"ADOT&PF","SourceId":"kywz0rdyv54","RoadwayName":"New Seward Hwy","Direction":"All","Latitude":61.1881,"Longitude":-149.8653,"Location":"36th & New Seward Hwy","SortOrder":0,"Views_Id":448,"Url":"https://511.alaska.gov/map/Cctv/448","Status":"Enabled","Views_Description":"36th & New Seward Hwy","category":"Seward Highway"},{"Id":116,"Source":"ADOT&PF","SourceId":"lmszcrv3ush","RoadwayName":"5th Avenue","Direction":"Both","Latitude":61.2176,"Longitude":-149.8266,"Location":"5th Avenue / Glenn Hwy & Airport Heights","SortOrder":0,"Views_Id":449,"Url":"https://511.alaska.gov/map/Cctv/449","Status":"Enabled","Views_Description":"5th Avenue / Glenn Hwy & Airport Heights","category":"East Anchorage"},{"Id":118,"Source":"ADOT&PF","SourceId":"mc5xhvyhpdy","RoadwayName":"5th Avenue","Direction":"Both","Latitude":61.2175,"Longitude":-149.8367,"Location":"5th Avenue & Reeve Blvd","SortOrder":0,"Views_Id":451,"Url":"https://511.alaska.gov/map/Cctv/451","Status":"Enabled","Views_Description":"5th Avenue & Reeve Blvd","category":"East Anchorage"},{"Id":121,"Source":"ADOT&PF","SourceId":"mkk1cyt2pof","RoadwayName":"Minnesota","Direction":"All","Latitude":61.1937,"Longitude":-149.9131,"Location":"Benson & Minnesota","SortOrder":0,"Views_Id":454,"Url":"https://511.alaska.gov/map/Cctv/454","Status":"Enabled","Views_Description":"Benson & Minnesota","category":"West Anchorage"},{"Id":122,"Source":"ADOT&PF","SourceId":"neqyhouo54z","RoadwayName":"C Street","Direction":"Both","Latitude":61.1667,"Longitude":-149.8865,"Location":"C St & Dowling","SortOrder":0,"Views_Id":455,"Url":"https://511.alaska.gov/map/Cctv/455","Status":"Enabled","Views_Description":"C St & Dowling","category":"Midtown"},{"Id":123,"Source":"ADOT&PF","SourceId":"ngbl2xqea3o","RoadwayName":"Elmore Road","Direction":"All","Latitude":61.1671,"Longitude":-149.809,"Location":"Dowling & Elmore","SortOrder":0,"Views_Id":456,"Url":"https://511.alaska.gov/map/Cctv/456","Status":"Enabled","Views_Description":"N/A","category":"East Anchorage"},{"Id":125,"Source":"ADOT&PF","SourceId":"nxtzzv5wjuq","RoadwayName":"Elmore Road","Direction":"All","Latitude":61.1772,"Longitude":-149.8082,"Location":"Elmore & MLK","SortOrder":0,"Views_Id":458,"Url":"https://511.alaska.gov/map/Cctv/458","Status":"Enabled","Views_Description":"N/A","category":"East Anchorage"},{"Id":133,"Source":"ADOT&PF","SourceId":"vzmcpkzwuoi","RoadwayName":"Minnesota","Direction":"All","Latitude":61.1953,"Longitude":-149.9131,"Location":"Minnesota & Northern Lights","SortOrder":0,"Views_Id":466,"Url":"https://511.alaska.gov/map/Cctv/466","Status":"Enabled","Views_Description":"Minnesota & Northern Lights","category":"West Anchorage"},{"Id":138,"Source":"ADOT&PF","SourceId":"ypazqog3blc","RoadwayName":"Dimond Blvd","Direction":"Both","Latitude":61.1375,"Longitude":-149.9518,"Location":"Dimond Blvd & Jewel Lake Road","SortOrder":0,"Views_Id":471,"Url":"https://511.alaska.gov/map/Cctv/471","Status":"Enabled","Views_Description":"","category":"South Anchorage"}]
